timestamp,station_id,station_name,city_name,url,latitude,longitude,aqi,co,temperature,wind,atmospheric_pressure,humidity,pm25,pm10,o3,no2
2025-03-06 09:00:00,8688,"United Nations International School of Hanoi, Vietnam (Trường Quốc tế Liên Hợp Quốc Hà Nội)",Hà Nội,https://aqicn.org/city/vietnam/hanoi/unis,21.0811211,105.8180306,90,N/A,17,5.1,1022,77,90,N/A,N/A,N/A
2025-03-06 10:00:00,13026,"Hà Nội/Chi cục BVMT, Vietnam",Hà Nội,https://aqicn.org/city/vietnam/ha-noi/chi-cuc-bvmt,21.01525,105.80013,34,0.1,18,5.1,1022,55,34,N/A,3.1,38.4
2025-03-06 10:00:00,1583,"Hanoi, Vietnam (Hà Nội)",Hà Nội,https://aqicn.org/city/vietnam/hanoi,21.0491,105.8831,23,5,17.5,5.4,1021,59,19,23,3,2
2025-03-06 10:00:00,13026,"Hà Nội/Chi cục BVMT, Vietnam",Hà Nội,https://aqicn.org/city/vietnam/ha-noi/chi-cuc-bvmt,21.0215063,105.8188748,34,0.1,18,5.1,1022,55,34,N/A,3.1,38.4
2025-03-06 10:00:00,13427,"Hà Nội/TT giao lưu văn hóa phố cổ - Hoàn Kiếm, Vietnam",Hà Nội,https://aqicn.org/city/vietnam/ha-noi/tt-giao-luu-van-hoa-pho-co-hoan-kiem,21.035584,105.852771,31,0.1,18,5.1,1022,55,31,12,N/A,20
2025-03-06 10:00:00,13251,"Hà Nội/UBND P. Minh Khai, Bắc Từ Liêm, Vietnam",Hà Nội,https://aqicn.org/city/vietnam/ha-noi/ubnd-p.-minh-khai--bac-tu-liem,21.04975,105.74187,31,0.1,18,5.1,1022,55,N/A,31,4.9,N/A
2025-03-06 10:00:00,13422,"Hà Nội/Mầm non Vân Hà – Đông Anh, Vietnam",Hà Nội,https://aqicn.org/city/vietnam/ha-noi/mam-non-van-ha---dong-anh,21.148273,105.913306,32,0.1,18,5.1,1022,55,32,11,N/A,3.8
2025-03-06 10:00:00,13439,"Hà Nội/UBND xã An Khánh - Hoài Đức, Vietnam",Hà Nội,https://aqicn.org/city/vietnam/ha-noi/ubnd-xa-an-khanh-hoai-duc,21.002383,105.718038,45,0.1,18,5.1,1022,55,45,17,N/A,6.9
